
[
  {
    "id": 1,
    "name": "Московская область",
    "latitude": 55.7558,
    "longitude": 37.6173,
    "population": 0,
    "maxPopulation": 150000,
    "resources": { "food": 10, "gold": 8 },
    "boundaries": [],
    "owner": "player",
    "buildings": [],
    "military": 0
  },
  {
    "id": 2,
    "name": "Ленинградская область",
    "latitude": 59.9343,
    "longitude": 30.3351,
    "population": 0,
    "maxPopulation": 100000,
    "resources": { "food": 8, "oil": 3 },
    "boundaries": [],
    "owner": "neutral",
    "buildings": [],
    "military": 0
  },
  {
    "id": 3,
    "name": "Новосибирская область",
    "latitude": 55.0084,
    "longitude": 82.9357,
    "population": 0,
    "maxPopulation": 80000,
    "resources": { "gold": 7, "wood": 5 },
    "boundaries": [],
    "owner": "neutral",
    "buildings": [],
    "military": 0
  },
  {
    "id": 4,
    "name": "Свердловская область",
    "latitude": 56.8389,
    "longitude": 60.6057,
    "population": 0,
    "maxPopulation": 90000,
    "resources": { "wood": 6, "metal": 4 },
    "boundaries": [],
    "owner": "neutral",
    "buildings": [],
    "military": 0
  },
  {
    "id": 5,
    "name": "Нижегородская область",
    "latitude": 56.2965,
    "longitude": 43.9361,
    "population": 0,
    "maxPopulation": 85000,
    "resources": { "wood": 8, "food": 5 },
    "boundaries": [],
    "owner": "neutral",
    "buildings": [],
    "military": 0
  }
]
